[{"id": "ml2qTQ3qlgrTN2W2VvdKmQ", "alias": "sushi-siam-champaign", "name": "Sushi Siam", "image_url": "https://s3-media2.fl.yelpcdn.com/bphoto/4Ak0PSBsxhdnpQtIbem5Cg/o.jpg", "is_closed": false, "url": "https://www.yelp.com/biz/sushi-siam-champaign?adjust_creative=RYjMq-vUQKDveYcBP-Mb3g&utm_campaign=yelp_api_v3&utm_medium=api_v3_business_search&utm_source=RYjMq-vUQKDveYcBP-Mb3g", "review_count": 41, "categories": [{"alias": "sushi", "title": "Sushi Bars"}], "rating": 4.5, "coordinates": {"latitude": 40.09733255075801, "longitude": -88.27503}, "transactions": ["delivery", "pickup"], "location": {"address1": "1731 W Kirby Ave", "address2": null, "address3": "", "city": "Champaign", "zip_code": "61821", "country": "US", "state": "IL", "display_address": ["1731 W Kirby Ave", "Champaign, IL 61821"]}, "phone": "+12176071906", "display_phone": "(217) 607-1906", "distance": 1776.1012816190382}, {"id": "-zEpEmDfFQL-ph0N3BDlXA", "alias": "sakanaya-champaign-2", "name": "Sakanaya", "image_url": "https://s3-media2.fl.yelpcdn.com/bphoto/cHogr6eHY3Jd8lgM27j_uA/o.jpg", "is_closed": false, "url": "https://www.yelp.com/biz/sakanaya-champaign-2?adjust_creative=RYjMq-vUQKDveYcBP-Mb3g&utm_campaign=yelp_api_v3&utm_medium=api_v3_business_search&utm_source=RYjMq-vUQKDveYcBP-Mb3g", "review_count": 593, "categories": [{"alias": "japanese", "title": "Japanese"}, {"alias": "sushi", "title": "Sushi Bars"}], "rating": 4.5, "coordinates": {"latitude": 40.11001, "longitude": -88.23307}, "transactions": ["delivery", "pickup"], "price": "$$", "location": {"address1": "403 E Green St", "address2": null, "address3": "", "city": "Champaign", "zip_code": "61820", "country": "US", "state": "IL", "display_address": ["403 E Green St", "Champaign, IL 61820"]}, "phone": "+12173441400", "display_phone": "(217) 344-1400", "distance": 3780.9844037737143}, {"id": "avyN1FdXcxQfrM8Mqz7WGA", "alias": "ishi-sushi-and-kaori-s-oven-champaign", "name": "ISHI sushi & Kaori\u2019s Oven", "image_url": "https://s3-media1.fl.yelpcdn.com/bphoto/cSZUkigtiugIEYzRdugCMg/o.jpg", "is_closed": false, "url": "https://www.yelp.com/biz/ishi-sushi-and-kaori-s-oven-champaign?adjust_creative=RYjMq-vUQKDveYcBP-Mb3g&utm_campaign=yelp_api_v3&utm_medium=api_v3_business_search&utm_source=RYjMq-vUQKDveYcBP-Mb3g", "review_count": 6, "categories": [{"alias": "sushi", "title": "Sushi Bars"}], "rating": 5.0, "coordinates": {"latitude": 40.09874, "longitude": -88.24724}, "transactions": [], "location": {"address1": "305 Cedar St", "address2": "", "address3": null, "city": "Champaign", "zip_code": "61820", "country": "US", "state": "IL", "display_address": ["305 Cedar St", "Champaign, IL 61820"]}, "phone": "", "display_phone": "", "distance": 3028.885859023115}, {"id": "NEVA0IYbawceL6kz5v5DAw", "alias": "kofusion-champaign", "name": "Kofusion", "image_url": "https://s3-media2.fl.yelpcdn.com/bphoto/a20kCPf3hgdF9rwL_rMysA/o.jpg", "is_closed": false, "url": "https://www.yelp.com/biz/kofusion-champaign?adjust_creative=RYjMq-vUQKDveYcBP-Mb3g&utm_campaign=yelp_api_v3&utm_medium=api_v3_business_search&utm_source=RYjMq-vUQKDveYcBP-Mb3g", "review_count": 358, "categories": [{"alias": "asianfusion", "title": "Asian Fusion"}, {"alias": "sushi", "title": "Sushi Bars"}], "rating": 3.5, "coordinates": {"latitude": 40.1176334856215, "longitude": -88.24234939433758}, "transactions": ["delivery"], "price": "$$", "location": {"address1": "30 E Main St", "address2": null, "address3": "", "city": "Champaign", "zip_code": "61820", "country": "US", "state": "IL", "display_address": ["30 E Main St", "Champaign, IL 61820"]}, "phone": "+12175311166", "display_phone": "(217) 531-1166", "distance": 3004.4820015462265}, {"id": "0-WocGTpO3Zm4q1Zzz49Rw", "alias": "sushi-kame-champaign", "name": "Sushi Kame", "image_url": "https://s3-media2.fl.yelpcdn.com/bphoto/p_1Q9Wtnuc6ii5Bz93QLlA/o.jpg", "is_closed": false, "url": "https://www.yelp.com/biz/sushi-kame-champaign?adjust_creative=RYjMq-vUQKDveYcBP-Mb3g&utm_campaign=yelp_api_v3&utm_medium=api_v3_business_search&utm_source=RYjMq-vUQKDveYcBP-Mb3g", "review_count": 169, "categories": [{"alias": "sushi", "title": "Sushi Bars"}, {"alias": "japanese", "title": "Japanese"}], "rating": 3.5, "coordinates": {"latitude": 40.109781, "longitude": -88.240886}, "transactions": ["delivery"], "price": "$$", "location": {"address1": "39 E Green St", "address2": null, "address3": "", "city": "Champaign", "zip_code": "61820", "country": "US", "state": "IL", "display_address": ["39 E Green St", "Champaign, IL 61820"]}, "phone": "+12173563366", "display_phone": "(217) 356-3366", "distance": 3111.976400166519}, {"id": "dHkbBWmXXjaO_-9BgQyEPg", "alias": "moki-sushi-champaign", "name": "Moki Sushi", "image_url": "https://s3-media1.fl.yelpcdn.com/bphoto/-s7Qo6RE5W1eWgyMArYztw/o.jpg", "is_closed": false, "url": "https://www.yelp.com/biz/moki-sushi-champaign?adjust_creative=RYjMq-vUQKDveYcBP-Mb3g&utm_campaign=yelp_api_v3&utm_medium=api_v3_business_search&utm_source=RYjMq-vUQKDveYcBP-Mb3g", "review_count": 132, "categories": [{"alias": "sushi", "title": "Sushi Bars"}, {"alias": "japanese", "title": "Japanese"}], "rating": 2.5, "coordinates": {"latitude": 40.0916496000229, "longitude": -88.248083082342}, "transactions": ["delivery", "pickup"], "location": {"address1": "2017 S Neil St", "address2": "", "address3": null, "city": "Champaign", "zip_code": "61820", "country": "US", "state": "IL", "display_address": ["2017 S Neil St", "Champaign, IL 61820"]}, "phone": "+12175521600", "display_phone": "(217) 552-1600", "distance": 3447.841200080095}, {"id": "r0B-DJAA_XX2Dq_cwbPcaQ", "alias": "sakura-japanese-restaurant-urbana", "name": "Sakura Japanese Restaurant", "image_url": "https://s3-media3.fl.yelpcdn.com/bphoto/V6okwbSV4decXtzG_hvrrQ/o.jpg", "is_closed": false, "url": "https://www.yelp.com/biz/sakura-japanese-restaurant-urbana?adjust_creative=RYjMq-vUQKDveYcBP-Mb3g&utm_campaign=yelp_api_v3&utm_medium=api_v3_business_search&utm_source=RYjMq-vUQKDveYcBP-Mb3g", "review_count": 8, "categories": [{"alias": "japanese", "title": "Japanese"}], "rating": 5.0, "coordinates": {"latitude": 40.1126375, "longitude": -88.2086143}, "transactions": ["delivery", "pickup"], "location": {"address1": "132 W Main St", "address2": "", "address3": null, "city": "Urbana", "zip_code": "61801", "country": "US", "state": "IL", "display_address": ["132 W Main St", "Urbana, IL 61801"]}, "phone": "", "display_phone": "", "distance": 5833.3712728853425}, {"id": "crfLLGNR9icEi6bwDLwQwA", "alias": "the-pok\u00e9-shack-champaign", "name": "The Pok\u00e9 Shack", "image_url": "https://s3-media1.fl.yelpcdn.com/bphoto/h3o8lApY9HlttqwgGFTsQA/o.jpg", "is_closed": false, "url": "https://www.yelp.com/biz/the-pok%C3%A9-shack-champaign?adjust_creative=RYjMq-vUQKDveYcBP-Mb3g&utm_campaign=yelp_api_v3&utm_medium=api_v3_business_search&utm_source=RYjMq-vUQKDveYcBP-Mb3g", "review_count": 13, "categories": [{"alias": "poke", "title": "Poke"}, {"alias": "hawaiian", "title": "Hawaiian"}, {"alias": "sushi", "title": "Sushi Bars"}], "rating": 4.5, "coordinates": {"latitude": 40.071419, "longitude": -88.31005}, "transactions": ["delivery", "pickup"], "location": {"address1": "3401 Fields S Dr", "address2": "Ste 121", "address3": "The Fields by Carle", "city": "Champaign", "zip_code": "61822", "country": "US", "state": "IL", "display_address": ["3401 Fields S Dr", "Ste 121", "The Fields by Carle", "Champaign, IL 61822"]}, "phone": "+12177228762", "display_phone": "(217) 722-8762", "distance": 5409.373715968246}, {"id": "mPyLlJp5KSvilTcASPOq8A", "alias": "sushi-man-champaign-2", "name": "Sushi Man", "image_url": "https://s3-media4.fl.yelpcdn.com/bphoto/IRZN--h9-n_lYV9PLOdRIA/o.jpg", "is_closed": false, "url": "https://www.yelp.com/biz/sushi-man-champaign-2?adjust_creative=RYjMq-vUQKDveYcBP-Mb3g&utm_campaign=yelp_api_v3&utm_medium=api_v3_business_search&utm_source=RYjMq-vUQKDveYcBP-Mb3g", "review_count": 9, "categories": [{"alias": "sushi", "title": "Sushi Bars"}], "rating": 3.0, "coordinates": {"latitude": 40.110564540841146, "longitude": -88.23425918650605}, "transactions": ["delivery", "pickup"], "location": {"address1": "308 E Green St", "address2": "", "address3": null, "city": "Champaign", "zip_code": "61820", "country": "US", "state": "IL", "display_address": ["308 E Green St", "Champaign, IL 61820"]}, "phone": "+12173663229", "display_phone": "(217) 366-3229", "distance": 3664.153365828444}, {"id": "5jXwI9WpDxGDmzmkmE0RTg", "alias": "oishi-champaign", "name": "Oishi", "image_url": "https://s3-media4.fl.yelpcdn.com/bphoto/M0lVTsBeNX9DkbY32cYJmg/o.jpg", "is_closed": false, "url": "https://www.yelp.com/biz/oishi-champaign?adjust_creative=RYjMq-vUQKDveYcBP-Mb3g&utm_campaign=yelp_api_v3&utm_medium=api_v3_business_search&utm_source=RYjMq-vUQKDveYcBP-Mb3g", "review_count": 168, "categories": [{"alias": "japanese", "title": "Japanese"}, {"alias": "asianfusion", "title": "Asian Fusion"}, {"alias": "panasian", "title": "Pan Asian"}], "rating": 3.0, "coordinates": {"latitude": 40.14518152563804, "longitude": -88.25844797832346}, "transactions": ["delivery", "pickup"], "price": "$$", "location": {"address1": "2501 N Prospect Ave", "address2": "", "address3": "", "city": "Champaign", "zip_code": "61822", "country": "US", "state": "IL", "display_address": ["2501 N Prospect Ave", "Champaign, IL 61822"]}, "phone": "+12173986888", "display_phone": "(217) 398-6888", "distance": 3895.5455003779216}, {"id": "_n5wggIEfBzCUepjgvHXAQ", "alias": "sushi-ichiban-champaign", "name": "Sushi Ichiban", "image_url": "https://s3-media2.fl.yelpcdn.com/bphoto/RJ0yG2G9HI-_mF-2T_TIQg/o.jpg", "is_closed": false, "url": "https://www.yelp.com/biz/sushi-ichiban-champaign?adjust_creative=RYjMq-vUQKDveYcBP-Mb3g&utm_campaign=yelp_api_v3&utm_medium=api_v3_business_search&utm_source=RYjMq-vUQKDveYcBP-Mb3g", "review_count": 91, "categories": [{"alias": "sushi", "title": "Sushi Bars"}, {"alias": "japanese", "title": "Japanese"}], "rating": 3.0, "coordinates": {"latitude": 40.1108199, "longitude": -88.22915}, "transactions": ["delivery"], "price": "$$", "location": {"address1": "619 S Wright St", "address2": "", "address3": "", "city": "Champaign", "zip_code": "61820", "country": "US", "state": "IL", "display_address": ["619 S Wright St", "Champaign, IL 61820"]}, "phone": "+12179540493", "display_phone": "(217) 954-0493", "distance": 4096.701243052701}, {"id": "z-Q3uNXOjr7iYpl9kexFzQ", "alias": "harvest-market-champaign", "name": "Harvest Market", "image_url": "https://s3-media1.fl.yelpcdn.com/bphoto/gqoAaYLVcIfYy-zDeQx7zg/o.jpg", "is_closed": false, "url": "https://www.yelp.com/biz/harvest-market-champaign?adjust_creative=RYjMq-vUQKDveYcBP-Mb3g&utm_campaign=yelp_api_v3&utm_medium=api_v3_business_search&utm_source=RYjMq-vUQKDveYcBP-Mb3g", "review_count": 69, "categories": [{"alias": "grocery", "title": "Grocery"}], "rating": 4.0, "coordinates": {"latitude": 40.0906455271616, "longitude": -88.2477702837333}, "transactions": [], "price": "$$$", "location": {"address1": "2029 South Neil St", "address2": "", "address3": null, "city": "Champaign", "zip_code": "61820", "country": "US", "state": "IL", "display_address": ["2029 South Neil St", "Champaign, IL 61820"]}, "phone": "+12173557878", "display_phone": "(217) 355-7878", "distance": 3545.167292099232}, {"id": "UmZdQID7QJoyg2R92mK3HA", "alias": "siam-terrace-urbana", "name": "Siam Terrace", "image_url": "https://s3-media2.fl.yelpcdn.com/bphoto/QPrpFnPGvTWmCQYrsr49Fw/o.jpg", "is_closed": false, "url": "https://www.yelp.com/biz/siam-terrace-urbana?adjust_creative=RYjMq-vUQKDveYcBP-Mb3g&utm_campaign=yelp_api_v3&utm_medium=api_v3_business_search&utm_source=RYjMq-vUQKDveYcBP-Mb3g", "review_count": 260, "categories": [{"alias": "thai", "title": "Thai"}, {"alias": "sushi", "title": "Sushi Bars"}, {"alias": "japanese", "title": "Japanese"}], "rating": 4.0, "coordinates": {"latitude": 40.112708, "longitude": -88.209446}, "transactions": ["delivery", "pickup"], "price": "$$", "location": {"address1": "212 W Main St", "address2": "", "address3": "", "city": "Urbana", "zip_code": "61801", "country": "US", "state": "IL", "display_address": ["212 W Main St", "Urbana, IL 61801"]}, "phone": "+12173678424", "display_phone": "(217) 367-8424", "distance": 5762.563098612084}, {"id": "gEJZ5USuvC1r8_QvSvDCNA", "alias": "k-bowl-champaign", "name": "K-Bowl", "image_url": "https://s3-media2.fl.yelpcdn.com/bphoto/JECom0MpdaU2_Iao6vBsww/o.jpg", "is_closed": false, "url": "https://www.yelp.com/biz/k-bowl-champaign?adjust_creative=RYjMq-vUQKDveYcBP-Mb3g&utm_campaign=yelp_api_v3&utm_medium=api_v3_business_search&utm_source=RYjMq-vUQKDveYcBP-Mb3g", "review_count": 57, "categories": [{"alias": "korean", "title": "Korean"}, {"alias": "poke", "title": "Poke"}], "rating": 4.0, "coordinates": {"latitude": 40.109988, "longitude": -88.240506}, "transactions": ["delivery"], "price": "$", "location": {"address1": "39 E Green St", "address2": "", "address3": "", "city": "Champaign", "zip_code": "61820", "country": "US", "state": "IL", "display_address": ["39 E Green St", "Champaign, IL 61820"]}, "phone": "+12173446022", "display_phone": "(217) 344-6022", "distance": 3141.635582108006}, {"id": "3I3gl-WS7CBa41A4BDA7yw", "alias": "broadway-food-hall-urbana-4", "name": "Broadway Food Hall", "image_url": "https://s3-media3.fl.yelpcdn.com/bphoto/zzb2-52wyWcAEScmkNRf7g/o.jpg", "is_closed": false, "url": "https://www.yelp.com/biz/broadway-food-hall-urbana-4?adjust_creative=RYjMq-vUQKDveYcBP-Mb3g&utm_campaign=yelp_api_v3&utm_medium=api_v3_business_search&utm_source=RYjMq-vUQKDveYcBP-Mb3g", "review_count": 64, "categories": [{"alias": "food_court", "title": "Food Court"}], "rating": 4.5, "coordinates": {"latitude": 40.11519, "longitude": -88.20804}, "transactions": [], "price": "$$", "location": {"address1": "401 N Broadway Ave", "address2": "", "address3": null, "city": "Urbana", "zip_code": "61801", "country": "US", "state": "IL", "display_address": ["401 N Broadway Ave", "Urbana, IL 61801"]}, "phone": "", "display_phone": "", "distance": 5875.524751002067}, {"id": "mofOjB6flg-eAWOFbOkHfQ", "alias": "chinatown-buffet-champaign", "name": "ChinaTown Buffet", "image_url": "https://s3-media4.fl.yelpcdn.com/bphoto/vfO1YIOgpq_SWKRd20uSIg/o.jpg", "is_closed": false, "url": "https://www.yelp.com/biz/chinatown-buffet-champaign?adjust_creative=RYjMq-vUQKDveYcBP-Mb3g&utm_campaign=yelp_api_v3&utm_medium=api_v3_business_search&utm_source=RYjMq-vUQKDveYcBP-Mb3g", "review_count": 109, "categories": [{"alias": "chinese", "title": "Chinese"}, {"alias": "buffets", "title": "Buffets"}, {"alias": "sushi", "title": "Sushi Bars"}], "rating": 2.5, "coordinates": {"latitude": 40.1372756958008, "longitude": -88.256217956543}, "transactions": [], "price": "$$", "location": {"address1": "713 W Marketview Dr", "address2": "", "address3": "", "city": "Champaign", "zip_code": "61822", "country": "US", "state": "IL", "display_address": ["713 W Marketview Dr", "Champaign, IL 61822"]}, "phone": "+12173989888", "display_phone": "(217) 398-9888", "distance": 3217.9747582006335}, {"id": "ViJjcvNH_Up1mXZ5NieApg", "alias": "county-market-champaign-4", "name": "County Market", "image_url": "https://s3-media2.fl.yelpcdn.com/bphoto/RzdcEYBf1eu8cJ2_tRGJhA/o.jpg", "is_closed": false, "url": "https://www.yelp.com/biz/county-market-champaign-4?adjust_creative=RYjMq-vUQKDveYcBP-Mb3g&utm_campaign=yelp_api_v3&utm_medium=api_v3_business_search&utm_source=RYjMq-vUQKDveYcBP-Mb3g", "review_count": 39, "categories": [{"alias": "grocery", "title": "Grocery"}], "rating": 3.5, "coordinates": {"latitude": 40.11307, "longitude": -88.23393}, "transactions": [], "price": "$$", "location": {"address1": "331 E Stoughton St", "address2": "", "address3": "", "city": "Champaign", "zip_code": "61820", "country": "US", "state": "IL", "display_address": ["331 E Stoughton St", "Champaign, IL 61820"]}, "phone": "+12173524123", "display_phone": "(217) 352-4123", "distance": 3681.9002743621654}, {"id": "pCer-vIZM05p423MFmiSng", "alias": "kofusion-campus-urbana-2", "name": "KoFusion Campus", "image_url": "https://s3-media2.fl.yelpcdn.com/bphoto/XNaW6ReoGxYVTUphMn6Lhw/o.jpg", "is_closed": false, "url": "https://www.yelp.com/biz/kofusion-campus-urbana-2?adjust_creative=RYjMq-vUQKDveYcBP-Mb3g&utm_campaign=yelp_api_v3&utm_medium=api_v3_business_search&utm_source=RYjMq-vUQKDveYcBP-Mb3g", "review_count": 70, "categories": [{"alias": "sushi", "title": "Sushi Bars"}, {"alias": "asianfusion", "title": "Asian Fusion"}], "rating": 3.5, "coordinates": {"latitude": 40.1068226779779, "longitude": -88.2217281018343}, "transactions": ["delivery", "pickup"], "price": "$$", "location": {"address1": "701 S Gregory St", "address2": "Ste F", "address3": "", "city": "Urbana", "zip_code": "61801", "country": "US", "state": "IL", "display_address": ["701 S Gregory St", "Ste F", "Urbana, IL 61801"]}, "phone": "+12179541572", "display_phone": "(217) 954-1572", "distance": 4771.328021764894}, {"id": "ucgIGCubSaCaPpMpW1qqMg", "alias": "oozu-ramen-bar-champaign", "name": "Oozu Ramen Bar", "image_url": "https://s3-media4.fl.yelpcdn.com/bphoto/UdR4_uQIQ-55bk0PwSr-UQ/o.jpg", "is_closed": false, "url": "https://www.yelp.com/biz/oozu-ramen-bar-champaign?adjust_creative=RYjMq-vUQKDveYcBP-Mb3g&utm_campaign=yelp_api_v3&utm_medium=api_v3_business_search&utm_source=RYjMq-vUQKDveYcBP-Mb3g", "review_count": 30, "categories": [{"alias": "ramen", "title": "Ramen"}], "rating": 3.5, "coordinates": {"latitude": 40.11149, "longitude": -88.23058}, "transactions": ["delivery", "pickup"], "price": "$$", "location": {"address1": "601 S 6th St", "address2": "Ste 102", "address3": "", "city": "Champaign", "zip_code": "61820", "country": "US", "state": "IL", "display_address": ["601 S 6th St", "Ste 102", "Champaign, IL 61820"]}, "phone": "+12175521081", "display_phone": "(217) 552-1081", "distance": 3974.5576357834725}, {"id": "w7v0_gmsAtZRmn6dL1Fqgw", "alias": "poke-lab-champaign-4", "name": "Poke Lab", "image_url": "https://s3-media2.fl.yelpcdn.com/bphoto/vNw6v046Sd-ksGUchg-MgQ/o.jpg", "is_closed": false, "url": "https://www.yelp.com/biz/poke-lab-champaign-4?adjust_creative=RYjMq-vUQKDveYcBP-Mb3g&utm_campaign=yelp_api_v3&utm_medium=api_v3_business_search&utm_source=RYjMq-vUQKDveYcBP-Mb3g", "review_count": 55, "categories": [{"alias": "poke", "title": "Poke"}, {"alias": "seafood", "title": "Seafood"}, {"alias": "japanese", "title": "Japanese"}], "rating": 3.5, "coordinates": {"latitude": 40.1108057882084, "longitude": -88.23063328232}, "transactions": ["delivery", "pickup"], "price": "$", "location": {"address1": "605 S Sixth St", "address2": null, "address3": "", "city": "Champaign", "zip_code": "61820", "country": "US", "state": "IL", "display_address": ["605 S Sixth St", "Champaign, IL 61820"]}, "phone": "+12175521880", "display_phone": "(217) 552-1880", "distance": 3969.667676803263}, {"id": "dtKy808TwAgtOcwSCbXFJw", "alias": "jipbap-taste-of-korea-champaign", "name": "Jipbap Taste of Korea", "image_url": "https://s3-media2.fl.yelpcdn.com/bphoto/bcqF_NjM0OBXK0h0Lm3k-A/o.jpg", "is_closed": false, "url": "https://www.yelp.com/biz/jipbap-taste-of-korea-champaign?adjust_creative=RYjMq-vUQKDveYcBP-Mb3g&utm_campaign=yelp_api_v3&utm_medium=api_v3_business_search&utm_source=RYjMq-vUQKDveYcBP-Mb3g", "review_count": 99, "categories": [{"alias": "korean", "title": "Korean"}], "rating": 4.0, "coordinates": {"latitude": 40.1113775415054, "longitude": -88.230494646061}, "transactions": ["delivery"], "price": "$", "location": {"address1": "601 S 6th St", "address2": "Ste 101", "address3": null, "city": "Champaign", "zip_code": "61820", "country": "US", "state": "IL", "display_address": ["601 S 6th St", "Ste 101", "Champaign, IL 61820"]}, "phone": "+12175521688", "display_phone": "(217) 552-1688", "distance": 3977.6357365697136}, {"id": "AYTo8nXwJKxlnYZgWYr8lQ", "alias": "nori-sushi-and-grill-champaign", "name": "Nori Sushi & Grill", "image_url": "https://s3-media1.fl.yelpcdn.com/bphoto/kJ6_NWdwGLHIvLT84sg33g/o.jpg", "is_closed": false, "url": "https://www.yelp.com/biz/nori-sushi-and-grill-champaign?adjust_creative=RYjMq-vUQKDveYcBP-Mb3g&utm_campaign=yelp_api_v3&utm_medium=api_v3_business_search&utm_source=RYjMq-vUQKDveYcBP-Mb3g", "review_count": 1, "categories": [{"alias": "japanese", "title": "Japanese"}], "rating": 5.0, "coordinates": {"latitude": 40.13784, "longitude": -88.260714}, "transactions": ["pickup", "delivery"], "location": {"address1": "907 W Marketview Dr", "address2": null, "address3": "", "city": "Champaign", "zip_code": "61822", "country": "US", "state": "IL", "display_address": ["907 W Marketview Dr", "Champaign, IL 61822"]}, "phone": "+12176071660", "display_phone": "(217) 607-1660", "distance": 3061.658187206188}, {"id": "yiFcujhdkeDhmXRufMG-lw", "alias": "masijta-grill-urbana", "name": "Masijta Grill", "image_url": "https://s3-media2.fl.yelpcdn.com/bphoto/CGFwfltBLLvYfdl-wK3S4A/o.jpg", "is_closed": false, "url": "https://www.yelp.com/biz/masijta-grill-urbana?adjust_creative=RYjMq-vUQKDveYcBP-Mb3g&utm_campaign=yelp_api_v3&utm_medium=api_v3_business_search&utm_source=RYjMq-vUQKDveYcBP-Mb3g", "review_count": 177, "categories": [{"alias": "korean", "title": "Korean"}], "rating": 3.5, "coordinates": {"latitude": 40.1137608, "longitude": -88.2088348}, "transactions": ["pickup", "delivery"], "price": "$$", "location": {"address1": "202 N Race", "address2": "Ste A", "address3": "", "city": "Urbana", "zip_code": "61801", "country": "US", "state": "IL", "display_address": ["202 N Race", "Ste A", "Urbana, IL 61801"]}, "phone": "+12175521188", "display_phone": "(217) 552-1188", "distance": 5814.527186414379}, {"id": "GqlpfkQtSuIwzgQEvrkIkA", "alias": "kung-fu-tea-champaign", "name": "Kung Fu Tea", "image_url": "https://s3-media1.fl.yelpcdn.com/bphoto/C8s5IqG20huMDrqJ_8htWA/o.jpg", "is_closed": false, "url": "https://www.yelp.com/biz/kung-fu-tea-champaign?adjust_creative=RYjMq-vUQKDveYcBP-Mb3g&utm_campaign=yelp_api_v3&utm_medium=api_v3_business_search&utm_source=RYjMq-vUQKDveYcBP-Mb3g", "review_count": 44, "categories": [{"alias": "bubbletea", "title": "Bubble Tea"}, {"alias": "coffee", "title": "Coffee & Tea"}, {"alias": "juicebars", "title": "Juice Bars & Smoothies"}], "rating": 4.0, "coordinates": {"latitude": 40.10971, "longitude": -88.230729}, "transactions": ["pickup", "delivery"], "price": "$$", "location": {"address1": "707 S 6th St", "address2": "Ste 107", "address3": null, "city": "Champaign", "zip_code": "61820", "country": "US", "state": "IL", "display_address": ["707 S 6th St", "Ste 107", "Champaign, IL 61820"]}, "phone": "+12175521668", "display_phone": "(217) 552-1668", "distance": 3976.8466284185524}, {"id": "SgG5E7PUrCIsEMP0BVSlTg", "alias": "cheese-and-crackers-champaign", "name": "Cheese and Crackers", "image_url": "https://s3-media2.fl.yelpcdn.com/bphoto/4b2CsZUOJVArh8HirIn2iQ/o.jpg", "is_closed": false, "url": "https://www.yelp.com/biz/cheese-and-crackers-champaign?adjust_creative=RYjMq-vUQKDveYcBP-Mb3g&utm_campaign=yelp_api_v3&utm_medium=api_v3_business_search&utm_source=RYjMq-vUQKDveYcBP-Mb3g", "review_count": 97, "categories": [{"alias": "chocolate", "title": "Chocolatiers & Shops"}, {"alias": "delis", "title": "Delis"}, {"alias": "seafoodmarkets", "title": "Seafood Markets"}], "rating": 4.0, "coordinates": {"latitude": 40.0975748, "longitude": -88.274709}, "transactions": ["delivery"], "price": "$$", "location": {"address1": "1715 W Kirby", "address2": "", "address3": "", "city": "Champaign", "zip_code": "61821", "country": "US", "state": "IL", "display_address": ["1715 W Kirby", "Champaign, IL 61821"]}, "phone": "+12176158531", "display_phone": "(217) 615-8531", "distance": 1752.4123923058717}, {"id": "QdganL5AW9E_fNoRVroLig", "alias": "golden-wok-champaign", "name": "Golden Wok", "image_url": "https://s3-media3.fl.yelpcdn.com/bphoto/Q0AVTE9_kH737AlND0Sf4g/o.jpg", "is_closed": false, "url": "https://www.yelp.com/biz/golden-wok-champaign?adjust_creative=RYjMq-vUQKDveYcBP-Mb3g&utm_campaign=yelp_api_v3&utm_medium=api_v3_business_search&utm_source=RYjMq-vUQKDveYcBP-Mb3g", "review_count": 139, "categories": [{"alias": "thai", "title": "Thai"}, {"alias": "chinese", "title": "Chinese"}], "rating": 4.0, "coordinates": {"latitude": 40.1160545349121, "longitude": -88.232780456543}, "transactions": ["pickup", "delivery"], "price": "$", "location": {"address1": "405 E University Ave", "address2": "", "address3": "", "city": "Champaign", "zip_code": "61820", "country": "US", "state": "IL", "display_address": ["405 E University Ave", "Champaign, IL 61820"]}, "phone": "+12173568383", "display_phone": "(217) 356-8383", "distance": 3783.67008587824}, {"id": "FZFGv8vlqkZiejzUtSn76g", "alias": "star-bbq-savoy", "name": "Star BBQ", "image_url": "https://s3-media1.fl.yelpcdn.com/bphoto/UmrNqfvLPqKiVvrle8gyGw/o.jpg", "is_closed": false, "url": "https://www.yelp.com/biz/star-bbq-savoy?adjust_creative=RYjMq-vUQKDveYcBP-Mb3g&utm_campaign=yelp_api_v3&utm_medium=api_v3_business_search&utm_source=RYjMq-vUQKDveYcBP-Mb3g", "review_count": 39, "categories": [{"alias": "korean", "title": "Korean"}, {"alias": "bbq", "title": "Barbeque"}], "rating": 4.0, "coordinates": {"latitude": 40.0696446589924, "longitude": -88.2517614045955}, "transactions": [], "location": {"address1": "1209 Savoy Plaza Ln", "address2": "", "address3": null, "city": "Savoy", "zip_code": "61874", "country": "US", "state": "IL", "display_address": ["1209 Savoy Plaza Ln", "Savoy, IL 61874"]}, "phone": "+12173567777", "display_phone": "(217) 356-7777", "distance": 5306.679277012212}, {"id": "5CSGxhesXkz2XNQB8AP6Kw", "alias": "spoon-house-korean-kitchen-champaign", "name": "Spoon House Korean Kitchen", "image_url": "https://s3-media1.fl.yelpcdn.com/bphoto/zsBGffC0CIhHYYTwdtEsGw/o.jpg", "is_closed": false, "url": "https://www.yelp.com/biz/spoon-house-korean-kitchen-champaign?adjust_creative=RYjMq-vUQKDveYcBP-Mb3g&utm_campaign=yelp_api_v3&utm_medium=api_v3_business_search&utm_source=RYjMq-vUQKDveYcBP-Mb3g", "review_count": 105, "categories": [{"alias": "korean", "title": "Korean"}], "rating": 3.5, "coordinates": {"latitude": 40.11064, "longitude": -88.22961}, "transactions": ["pickup", "delivery"], "price": "$$", "location": {"address1": "616 E Green St", "address2": "Ste B", "address3": "", "city": "Champaign", "zip_code": "61820", "country": "US", "state": "IL", "display_address": ["616 E Green St", "Ste B", "Champaign, IL 61820"]}, "phone": "+12173443483", "display_phone": "(217) 344-3483", "distance": 4058.055853330402}, {"id": "YNpDMWdCbzWPYejG8lL7mA", "alias": "the-pok\u00e9-shack-mahomet", "name": "The Pok\u00e9 Shack", "image_url": "https://s3-media2.fl.yelpcdn.com/bphoto/uMppfxsCN_gy8hiopDKWiQ/o.jpg", "is_closed": false, "url": "https://www.yelp.com/biz/the-pok%C3%A9-shack-mahomet?adjust_creative=RYjMq-vUQKDveYcBP-Mb3g&utm_campaign=yelp_api_v3&utm_medium=api_v3_business_search&utm_source=RYjMq-vUQKDveYcBP-Mb3g", "review_count": 25, "categories": [{"alias": "poke", "title": "Poke"}, {"alias": "sushi", "title": "Sushi Bars"}], "rating": 5.0, "coordinates": {"latitude": 40.1965, "longitude": -88.397434}, "transactions": [], "location": {"address1": "804 Eastwood Ctr", "address2": "Ste 1", "address3": null, "city": "Mahomet", "zip_code": "61853", "country": "US", "state": "IL", "display_address": ["804 Eastwood Ctr", "Ste 1", "Mahomet, IL 61853"]}, "phone": "+12175867425", "display_phone": "(217) 586-7425", "distance": 13789.79959261204}, {"id": "Ub32nmh7wP3xBIWMqkl2HQ", "alias": "betsys-bistro-at-parkland-champaign", "name": "Betsy's Bistro at Parkland", "image_url": "https://s3-media1.fl.yelpcdn.com/bphoto/xsthX-yvtacNTJD5QGyC3g/o.jpg", "is_closed": false, "url": "https://www.yelp.com/biz/betsys-bistro-at-parkland-champaign?adjust_creative=RYjMq-vUQKDveYcBP-Mb3g&utm_campaign=yelp_api_v3&utm_medium=api_v3_business_search&utm_source=RYjMq-vUQKDveYcBP-Mb3g", "review_count": 1, "categories": [{"alias": "cafes", "title": "Cafes"}], "rating": 4.0, "coordinates": {"latitude": 40.12774145904063, "longitude": -88.2859108}, "transactions": [], "location": {"address1": "2400 W Bradley Ave", "address2": "", "address3": null, "city": "Champaign", "zip_code": "61821", "country": "US", "state": "IL", "display_address": ["2400 W Bradley Ave", "Champaign, IL 61821"]}, "phone": "+12173733759", "display_phone": "(217) 373-3759", "distance": 1776.4122942838853}, {"id": "t0f8qXrKGNWv6j8MGmosRg", "alias": "caff\u00e9-bene-urbana-3", "name": "Caff\u00e9 Bene", "image_url": "https://s3-media4.fl.yelpcdn.com/bphoto/IFqwV2KjnG3ZZOq96YEoqA/o.jpg", "is_closed": false, "url": "https://www.yelp.com/biz/caff%C3%A9-bene-urbana-3?adjust_creative=RYjMq-vUQKDveYcBP-Mb3g&utm_campaign=yelp_api_v3&utm_medium=api_v3_business_search&utm_source=RYjMq-vUQKDveYcBP-Mb3g", "review_count": 76, "categories": [{"alias": "coffee", "title": "Coffee & Tea"}, {"alias": "desserts", "title": "Desserts"}, {"alias": "juicebars", "title": "Juice Bars & Smoothies"}], "rating": 3.0, "coordinates": {"latitude": 40.106139, "longitude": -88.221243}, "transactions": ["pickup", "delivery"], "price": "$$", "location": {"address1": "700 S Gregory St", "address2": "", "address3": "", "city": "Urbana", "zip_code": "61801", "country": "US", "state": "IL", "display_address": ["700 S Gregory St", "Urbana, IL 61801"]}, "phone": "+12179178000", "display_phone": "(217) 917-8000", "distance": 4823.970165465515}, {"id": "FeXsYKhyJ7F8t0-kn5JldQ", "alias": "schnucks-urbana-urbana-2", "name": "Schnucks Urbana", "image_url": "https://s3-media3.fl.yelpcdn.com/bphoto/2pHvIYx3Q1JSF5A9Fpas9w/o.jpg", "is_closed": false, "url": "https://www.yelp.com/biz/schnucks-urbana-urbana-2?adjust_creative=RYjMq-vUQKDveYcBP-Mb3g&utm_campaign=yelp_api_v3&utm_medium=api_v3_business_search&utm_source=RYjMq-vUQKDveYcBP-Mb3g", "review_count": 30, "categories": [{"alias": "grocery", "title": "Grocery"}], "rating": 3.0, "coordinates": {"latitude": 40.1139865, "longitude": -88.20331340803938}, "transactions": [], "price": "$$", "location": {"address1": "200 N Vine St", "address2": "", "address3": "", "city": "Urbana", "zip_code": "61801", "country": "US", "state": "IL", "display_address": ["200 N Vine St", "Urbana, IL 61801"]}, "phone": "+12173376016", "display_phone": "(217) 337-6016", "distance": 6284.314755624491}, {"id": "IYASJOu_TXz8PpPbt-Clbg", "alias": "sushi-san-urbana", "name": "Sushi San", "image_url": "", "is_closed": false, "url": "https://www.yelp.com/biz/sushi-san-urbana?adjust_creative=RYjMq-vUQKDveYcBP-Mb3g&utm_campaign=yelp_api_v3&utm_medium=api_v3_business_search&utm_source=RYjMq-vUQKDveYcBP-Mb3g", "review_count": 4, "categories": [{"alias": "restaurants", "title": "Restaurants"}], "rating": 2.5, "coordinates": {"latitude": 40.11025, "longitude": -88.22715}, "transactions": [], "price": "$", "location": {"address1": "1401 W Green St", "address2": "", "address3": "", "city": "Urbana", "zip_code": "61801", "country": "US", "state": "IL", "display_address": ["1401 W Green St", "Urbana, IL 61801"]}, "phone": "+12173281886", "display_phone": "(217) 328-1886", "distance": 4276.199995758932}, {"id": "0aA5l11oXes0aS6mkN5lMQ", "alias": "szechuan-china-champaign", "name": "Szechuan China", "image_url": "https://s3-media2.fl.yelpcdn.com/bphoto/Oh-Vs6I9klYGPESzqFrSpw/o.jpg", "is_closed": false, "url": "https://www.yelp.com/biz/szechuan-china-champaign?adjust_creative=RYjMq-vUQKDveYcBP-Mb3g&utm_campaign=yelp_api_v3&utm_medium=api_v3_business_search&utm_source=RYjMq-vUQKDveYcBP-Mb3g", "review_count": 54, "categories": [{"alias": "szechuan", "title": "Szechuan"}], "rating": 2.5, "coordinates": {"latitude": 40.1128, "longitude": -88.239095}, "transactions": ["pickup", "delivery"], "price": "$$", "location": {"address1": "401 S 1st St", "address2": "", "address3": "", "city": "Champaign", "zip_code": "61820", "country": "US", "state": "IL", "display_address": ["401 S 1st St", "Champaign, IL 61820"]}, "phone": "+12173989999", "display_phone": "(217) 398-9999", "distance": 3234.1150047313654}, {"id": "U_94mqL35HOyfAbj2LADIg", "alias": "the-pok\u00e9-shack-urbana", "name": "The Pok\u00e9 Shack", "image_url": "", "is_closed": false, "url": "https://www.yelp.com/biz/the-pok%C3%A9-shack-urbana?adjust_creative=RYjMq-vUQKDveYcBP-Mb3g&utm_campaign=yelp_api_v3&utm_medium=api_v3_business_search&utm_source=RYjMq-vUQKDveYcBP-Mb3g", "review_count": 2, "categories": [{"alias": "poke", "title": "Poke"}, {"alias": "hawaiian", "title": "Hawaiian"}, {"alias": "sushi", "title": "Sushi Bars"}], "rating": 3.0, "coordinates": {"latitude": 40.11519, "longitude": -88.20804}, "transactions": [], "location": {"address1": "401 N Broadway Ave", "address2": null, "address3": "", "city": "Urbana", "zip_code": "61801", "country": "US", "state": "IL", "display_address": ["401 N Broadway Ave", "Urbana, IL 61801"]}, "phone": "", "display_phone": "", "distance": 5875.524751002067}]